{"type":"FeatureCollection","features":[{"type":"Feature","id":1,"geometry":{"coordinates":[-122.26276562799995,47.51042025500004],"type":"Point"},"properties":{"zip":"98178_2299","phone":"206.725.0780","website":"www.seattlestpaul.org","address":"10001 57th Ave S","name":"St. Paul School","grade":"P-8","objectid":"1","city":"Seattle","shape_needs_recoding":null,"shape_longitude":"-122.26276562799995","shape_latitude":"47.51042025500004"}},{"type":"Feature","id":2,"geometry":{"coordinates":[-122.28800275799995,47.61118419300004],"type":"Point"},"properties":{"zip":"98122_5299","phone":"206.324.0460","website":"www.stthereseseattle.org","address":"900 35th Ave","name":"St. Therese Catholic Academy ","grade":"P-8","objectid":"2","city":"Seattle","shape_needs_recoding":null,"shape_longitude":"-122.28800275799995","shape_latitude":"47.61118419300004"}},{"type":"Feature","id":3,"geometry":{"coordinates":[-122.37568393199996,47.671198606000075],"type":"Point"},"properties":{"zip":"98107_3096","phone":"206.782.4363","website":"http://www.stalseattle.org/","address":"5816 15th Ave NW","name":"St. Alphonsus School","grade":"P-8","objectid":"3","city":"Seattle","shape_needs_recoding":null,"shape_longitude":"-122.37568393199996","shape_latitude":"47.671198606000075"}},{"type":"Feature","id":4,"geometry":{"coordinates":[-122.30827667399996,47.62547818300004],"type":"Point"},"properties":{"zip":"98112_3900","phone":"206.329.3260","website":"www.stjosephsea.org","address":"700 18th Ave E","name":"St. Joseph School","grade":"K-8","objectid":"4","city":"Seattle","shape_needs_recoding":null,"shape_longitude":"-122.30827667399996","shape_latitude":"47.62547818300004"}},{"type":"Feature","id":5,"geometry":{"coordinates":[-122.27991364999997,47.55063310300005],"type":"Point"},"properties":{"zip":"98118_2795","phone":"206.725.1774","website":"www.saintedwardseattle.org","address":"4200 S Mead St","name":"St. Edwards School","grade":"P-8","objectid":"5","city":"Seattle","shape_needs_recoding":null,"shape_longitude":"-122.27991364999997","shape_latitude":"47.55063310300005"}},{"type":"Feature","id":6,"geometry":{"coordinates":[-122.35946395399998,47.51697570700003],"type":"Point"},"properties":{"zip":"98106_2786","phone":"206.767.6640","website":"www.hfseattle.org/school","address":"9615 20th Ave SW","name":"Holy Family School","grade":"P-8","objectid":"7","city":"Seattle","shape_needs_recoding":null,"shape_longitude":"-122.35946395399998","shape_latitude":"47.51697570700003"}},{"type":"Feature","id":7,"geometry":{"coordinates":[-122.35813769699996,47.63110511300005],"type":"Point"},"properties":{"zip":"98119_3321","phone":"206.282.3538","website":"www.stannesea.org","address":"101 W Lee St","name":"St. Anne School","grade":"P-8","objectid":"6","city":"Seattle","shape_needs_recoding":null,"shape_longitude":"-122.35813769699996","shape_latitude":"47.63110511300005"}},{"type":"Feature","id":8,"geometry":{"coordinates":[-122.25975656099996,47.51087089100008],"type":"Point"},"properties":{"zip":"98178_2255","phone":"206.723.5526","website":"www.agcschool.org","address":"10056 Renton Ave S","name":"Amazing Grace Christian School","grade":"K-9","objectid":"8","city":"Seattle","shape_needs_recoding":null,"shape_longitude":"-122.25975656099996","shape_latitude":"47.51087089100008"}},{"type":"Feature","id":9,"geometry":{"coordinates":[-122.308640992,47.609618357000045],"type":"Point"},"properties":{"zip":"98122_4747","phone":"206.709.3800","website":"www.lwgms.org","address":"810 18th Ave","name":"Lake WA Girls Middle School","grade":"6-8","objectid":"9","city":"Seattle","shape_needs_recoding":null,"shape_longitude":"-122.308640992","shape_latitude":"47.609618357000045"}},{"type":"Feature","id":10,"geometry":{"coordinates":[-122.28405606099994,47.53826769700004],"type":"Point"},"properties":{"zip":"98118_3562","phone":"206.723.0333","website":"www.seattleurbanacademy.org","address":"3800 S Othello St","name":"Seattle Urban Academy","grade":"9-12","objectid":"10","city":"Seattle","shape_needs_recoding":null,"shape_longitude":"-122.28405606099994","shape_latitude":"47.53826769700004"}},{"type":"Feature","id":11,"geometry":{"coordinates":[-122.31319531099996,47.69050261900003],"type":"Point"},"properties":{"zip":"98115_3101","phone":"206.523.9766","website":"www.mmscdayschool.org","address":"8511 15th Avenue NE","name":"MMSC Day School","grade":"P-6","objectid":"11","city":"Seattle","shape_needs_recoding":null,"shape_longitude":"-122.31319531099996","shape_latitude":"47.69050261900003"}},{"type":"Feature","id":12,"geometry":{"coordinates":[-122.32512336599996,47.68085752800005],"type":"Point"},"properties":{"zip":"98115_5335","phone":"206.547.4614","website":"www.billingsmiddleschool.org","address":"7217 Woodlawn Ave NE","name":"Billings Middle School","grade":"6-8","objectid":"12","city":"Seattle","shape_needs_recoding":null,"shape_longitude":"-122.32512336599996","shape_latitude":"47.68085752800005"}},{"type":"Feature","id":13,"geometry":{"coordinates":[-122.38474299599994,47.67745644100006],"type":"Point"},"properties":{"zip":"98117_5737","phone":"206.283.1828","website":"www.matheia.org","address":"2205 NW 67th St","name":"Matheia School","grade":"K-5","objectid":"17","city":"Seattle","shape_needs_recoding":null,"shape_longitude":"-122.38474299599994","shape_latitude":"47.67745644100006"}},{"type":"Feature","id":14,"geometry":{"coordinates":[-122.339114113,47.52065571900005],"type":"Point"},"properties":{"zip":"98106_3106","phone":"206.214.1011","website":"sterlinged.org","address":"9205 3rd Ave Sw","name":"Sound View Education ","grade":"3-12","objectid":"14","city":"Seattle","shape_needs_recoding":null,"shape_longitude":"-122.339114113","shape_latitude":"47.52065571900005"}},{"type":"Feature","id":15,"geometry":{"coordinates":[-122.32231534799996,47.677248150000025],"type":"Point"},"properties":{"zip":"98115_6460","phone":"206.235.5969","website":"www.sagaschool.org","address":"520 NE Ravenna Blvd","name":"Seattle Area German American School","grade":"P-3","objectid":"13","city":"Seattle","shape_needs_recoding":null,"shape_longitude":"-122.32231534799996","shape_latitude":"47.677248150000025"}},{"type":"Feature","id":16,"geometry":{"coordinates":[-122.38719025499995,47.56614859200005],"type":"Point"},"properties":{"zip":"98116_4101","phone":"206.938.4628","website":"www.tildenschool.org","address":"4105 California Ave SW","name":"Tilden School","grade":"K-5","objectid":"18","city":"Seattle","shape_needs_recoding":null,"shape_longitude":"-122.38719025499995","shape_latitude":"47.56614859200005"}},{"type":"Feature","id":17,"geometry":{"coordinates":[-122.29647558499994,47.58880002400008],"type":"Point"},"properties":{"zip":"98144_3870","phone":"206.384.2126","website":"www.seattlenativity.org","address":"2800 S Massachusetts St","name":"Seattle Nativity School","grade":"5-8","objectid":"15","city":"Seattle","shape_needs_recoding":null,"shape_longitude":"-122.29647558499994","shape_latitude":"47.58880002400008"}},{"type":"Feature","id":18,"geometry":{"coordinates":[-122.33885846399994,47.61996669400003],"type":"Point"},"properties":{"zip":"98109_5217","phone":"206.709.9500","website":"www.morningsideacademy.org","address":"201 Westlake Ave N","name":"Morningside Academy","grade":"1-10","objectid":"16","city":"Seattle","shape_needs_recoding":null,"shape_longitude":"-122.33885846399994","shape_latitude":"47.61996669400003"}},{"type":"Feature","id":19,"geometry":{"coordinates":[-122.30601201299999,47.596919265000054],"type":"Point"},"properties":{"zip":"98144_2209","phone":"206.324.4847","website":"www.giddensschool.org","address":"620 20th Ave S","name":"Giddens School","grade":"P-5","objectid":"19","city":"Seattle","shape_needs_recoding":null,"shape_longitude":"-122.30601201299999","shape_latitude":"47.596919265000054"}},{"type":"Feature","id":20,"geometry":{"coordinates":[-122.35247907899998,47.664760381000065],"type":"Point"},"properties":{"zip":"98103_6420","phone":"206.522.0350","website":"www.kapkaschool.org","address":"510 N 49th St","name":"Kapka Cooperative School","grade":"K-3","objectid":"20","city":"Seattle","shape_needs_recoding":null,"shape_longitude":"-122.35247907899998","shape_latitude":"47.664760381000065"}},{"type":"Feature","id":21,"geometry":{"coordinates":[-122.28536135499996,47.574986531000036],"type":"Point"},"properties":{"zip":"98144_7029","phone":"206.721.3480","website":"www.lakeandpark.org","address":"3201 Hunter Blvd S","name":"The Lake and Park School","grade":"K-4","objectid":"21","city":"Seattle","shape_needs_recoding":null,"shape_longitude":"-122.28536135499996","shape_latitude":"47.574986531000036"}},{"type":"Feature","id":22,"geometry":{"coordinates":[-122.28935521999995,47.69353537300003],"type":"Point"},"properties":{"zip":"98115_3648","phone":"206.525.9980","website":"www.ollseattle.org","address":"3520 NE 89th St","name":"Our Lady Of The Lake School","grade":"P-8","objectid":"22","city":"Seattle","shape_needs_recoding":null,"shape_longitude":"-122.28935521999995","shape_latitude":"47.69353537300003"}},{"type":"Feature","id":23,"geometry":{"coordinates":[-122.33117847699998,47.66410110100003],"type":"Point"},"properties":{"zip":"98103","phone":"206.632.7154","website":"www.meridianschool.edu","address":"4629 Sunnyside Ave N  Ste 242","name":"Meridian School","grade":"K-5","objectid":"23","city":"Seattle","shape_needs_recoding":null,"shape_longitude":"-122.33117847699998","shape_latitude":"47.66410110100003"}},{"type":"Feature","id":24,"geometry":{"coordinates":[-122.30013291199998,47.68699883700003],"type":"Point"},"properties":{"zip":"98115_4600","phone":"206.525.2714","website":"www.universityprep.org","address":"8000 25th Ave NE","name":"University Preparatory","grade":"6-12","objectid":"24","city":"Seattle","shape_needs_recoding":null,"shape_longitude":"-122.30013291199998","shape_latitude":"47.68699883700003"}},{"type":"Feature","id":25,"geometry":{"coordinates":[-122.38454732599996,47.56503750600007],"type":"Point"},"properties":{"zip":"98116_4216","phone":"206.937.7722","website":"www.seattlelutheran.org","address":"4100 SW Genesee St","name":"Seattle Lutheran High School","grade":"9-12","objectid":"25","city":"Seattle","shape_needs_recoding":null,"shape_longitude":"-122.38454732599996","shape_latitude":"47.56503750600007"}},{"type":"Feature","id":26,"geometry":{"coordinates":[-122.28675729799994,47.61806725100007],"type":"Point"},"properties":{"zip":"98122_3423","phone":"206.323.9011","website":"www.epiphanyschool.org","address":"3611 E Denny Way","name":"Epiphany School","grade":"P-5","objectid":"26","city":"Seattle","shape_needs_recoding":null,"shape_longitude":"-122.28675729799994","shape_latitude":"47.61806725100007"}},{"type":"Feature","id":27,"geometry":{"coordinates":[-122.37492741399996,47.53283766000004],"type":"Point"},"properties":{"zip":"98126_3503","phone":"206.932.2511","website":"www.westsideschool.org","address":"7740 34th Ave SW","name":"Westside School","grade":"P-8","objectid":"27","city":"Seattle","shape_needs_recoding":null,"shape_longitude":"-122.37492741399996","shape_latitude":"47.53283766000004"}},{"type":"Feature","id":28,"geometry":{"coordinates":[-122.31368391399997,47.66567842400008],"type":"Point"},"properties":{"zip":"98105_4341","phone":"206.427.0115","website":"www.aplschool.org","address":"5031 University Way NE     ","name":"Academy for Precision Learning ","grade":"K-10","objectid":"28","city":"Seattle","shape_needs_recoding":null,"shape_longitude":"-122.31368391399997","shape_latitude":"47.66567842400008"}},{"type":"Feature","id":29,"geometry":{"coordinates":[-122.36416921999995,47.66023161000004],"type":"Point"},"properties":{"zip":"98107_4451","phone":"206.789.7889","website":"www.pacificcrest.org","address":"600 NW Bright St","name":"Pacific Crest Schools","grade":"P-8","objectid":"29","city":"Seattle","shape_needs_recoding":null,"shape_longitude":"-122.36416921999995","shape_latitude":"47.66023161000004"}},{"type":"Feature","id":30,"geometry":{"coordinates":[-122.35356919499998,47.664806672000054],"type":"Point"},"properties":{"zip":"98103_6347","phone":"206.524.4244","website":"www.northwestmontessori.org","address":"4910 Phinney Ave N                   ","name":"Northwest Montessori","grade":"P-6","objectid":"30","city":"Seattle","shape_needs_recoding":null,"shape_longitude":"-122.35356919499998","shape_latitude":"47.664806672000054"}},{"type":"Feature","id":31,"geometry":{"coordinates":[-122.33676626399995,47.663800941000034],"type":"Point"},"properties":{"zip":"98103_6899","phone":"206.633.3375","website":"www.stbens.net","address":"4811 Wallingford Ave N","name":"St. Benedict School","grade":"P-8","objectid":"31","city":"Seattle","shape_needs_recoding":null,"shape_longitude":"-122.33676626399995","shape_latitude":"47.663800941000034"}},{"type":"Feature","id":32,"geometry":{"coordinates":[-122.32072223999995,47.632387599000026],"type":"Point"},"properties":{"zip":"98102_4256","phone":"206.624.6176","website":"www.brightwaterschool.org","address":"1501 Tenth Ave E  Suite 100","name":"Bright Water School","grade":"P-8","objectid":"32","city":"Seattle","shape_needs_recoding":null,"shape_longitude":"-122.32072223999995","shape_latitude":"47.632387599000026"}},{"type":"Feature","id":33,"geometry":{"coordinates":[-122.29732953699994,47.701580756000055],"type":"Point"},"properties":{"zip":"98125_7712","phone":"206.524.5320","website":"www.seattlewaldorf.org","address":"2728 NE 100th St","name":"Seattle Waldorf School","grade":"P-12","objectid":"33","city":"Seattle","shape_needs_recoding":null,"shape_longitude":"-122.29732953699994","shape_latitude":"47.701580756000055"}},{"type":"Feature","id":34,"geometry":{"coordinates":[-122.28879287899997,47.622907283000075],"type":"Point"},"properties":{"zip":"98112_4268","phone":"206.322.7978","website":"www.bush.edu","address":"3400 E Harrison","name":"The Bush School","grade":"K-12","objectid":"34","city":"Seattle","shape_needs_recoding":null,"shape_longitude":"-122.28879287899997","shape_latitude":"47.622907283000075"}},{"type":"Feature","id":35,"geometry":{"coordinates":[-122.375636843,47.538873059000025],"type":"Point"},"properties":{"zip":"98126_3399","phone":"206.935.0651","website":"guadalupe_school.org","address":"3401 SW Myrtle St","name":"Our Lady of Guadalupe School","grade":"P-8","objectid":"35","city":"Seattle","shape_needs_recoding":null,"shape_longitude":"-122.375636843","shape_latitude":"47.538873059000025"}},{"type":"Feature","id":36,"geometry":{"coordinates":[-122.29275405799996,47.55909180800006],"type":"Point"},"properties":{"zip":"98118","phone":"206.721.2446","website":"www.Koinonia.edu","address":"3019 S Angeline St                                  ","name":"Koinonia Learning Academy","grade":"P-12","objectid":"36","city":"Seattle","shape_needs_recoding":null,"shape_longitude":"-122.29275405799996","shape_latitude":"47.55909180800006"}},{"type":"Feature","id":37,"geometry":{"coordinates":[-122.31643691399995,47.64132161800006],"type":"Point"},"properties":{"zip":"98102_4016","phone":"206.577.2102","website":"www.seaprep.org","address":"2400 11th Ave E","name":"Seattle Prep/Matteo Ricci College","grade":"9-12","objectid":"37","city":"Seattle","shape_needs_recoding":null,"shape_longitude":"-122.31643691399995","shape_latitude":"47.64132161800006"}},{"type":"Feature","id":38,"geometry":{"coordinates":[-122.32171104999998,47.719225624000046],"type":"Point"},"properties":{"zip":"98125_4805","phone":"206.522.5212","website":"www.sjcs.net","address":"12351 8th Ave NE","name":"Seattle Jewish Community School","grade":"K-5","objectid":"38","city":"Seattle","shape_needs_recoding":null,"shape_longitude":"-122.32171104999998","shape_latitude":"47.719225624000046"}},{"type":"Feature","id":39,"geometry":{"coordinates":[-122.31392479799996,47.72154541300006],"type":"Point"},"properties":{"zip":"98125_4021","phone":"206.362.2785","website":"www.stmattschool.org","address":"1230 NE 127th St","name":"St. Matthew School","grade":"P-8","objectid":"39","city":"Seattle","shape_needs_recoding":null,"shape_longitude":"-122.31392479799996","shape_latitude":"47.72154541300006"}},{"type":"Feature","id":40,"geometry":{"coordinates":[-122.38787410599997,47.52190441300007],"type":"Point"},"properties":{"zip":"98136_2551","phone":"206.849.7146","website":"www.taprootschool.org","address":"9131 California Ave SW","name":"Taproot School","grade":"K-5","objectid":"40","city":"Seattle","shape_needs_recoding":null,"shape_longitude":"-122.38787410599997","shape_latitude":"47.52190441300007"}},{"type":"Feature","id":41,"geometry":{"coordinates":[-122.31806523499995,47.69421986200007],"type":"Point"},"properties":{"zip":"98115_3030","phone":"206.526.8217","website":"www.perkinsschool.com","address":"9005 Roosevelt Way NE","name":"Perkins School","grade":"K-5","objectid":"41","city":"Seattle","shape_needs_recoding":null,"shape_longitude":"-122.31806523499995","shape_latitude":"47.69421986200007"}},{"type":"Feature","id":42,"geometry":{"coordinates":[-122.29107783899997,47.56052763500003],"type":"Point"},"properties":{"zip":"98118_1702","phone":"206.721.1586","website":"www.zionprep.org","address":"4730 32nd Ave S","name":"Zion Preparatory Academy","grade":"P-1","objectid":"42","city":"Seattle","shape_needs_recoding":null,"shape_longitude":"-122.29107783899997","shape_latitude":"47.56052763500003"}},{"type":"Feature","id":43,"geometry":{"coordinates":[-122.31629868699997,47.61265937500008],"type":"Point"},"properties":{"zip":"98122_3925","phone":"206.323.6600","website":"www.seattleacademy.org","address":"1201 E Union St","name":"Seattle Academy of Arts/Sciences","grade":"6-12","objectid":"43","city":"Seattle","shape_needs_recoding":null,"shape_longitude":"-122.31629868699997","shape_latitude":"47.61265937500008"}},{"type":"Feature","id":44,"geometry":{"coordinates":[-122.29283895299994,47.67485323900007],"type":"Point"},"properties":{"zip":"98115_7233","phone":"206.524.7452","website":"www.asbschool.org","address":"6220 32nd Ave NE","name":"Assumption St. Bridget","grade":"K-8","objectid":"44","city":"Seattle","shape_needs_recoding":null,"shape_longitude":"-122.29283895299994","shape_latitude":"47.67485323900007"}},{"type":"Feature","id":45,"geometry":{"coordinates":[-122.32022443599999,47.71071886000004],"type":"Point"},"properties":{"zip":"98125","phone":"206.363.3600","website":"www.springacademy.com","address":"113045 8th Ave NE  Suite A","name":"Spring Academy","grade":"6-12","objectid":"45","city":"Seattle","shape_needs_recoding":null,"shape_longitude":"-122.32022443599999","shape_latitude":"47.71071886000004"}},{"type":"Feature","id":46,"geometry":{"coordinates":[-122.32231534799996,47.677248150000025],"type":"Point"},"properties":{"zip":"98115_6460","phone":"206.522.5992 206.369.7833","website":"www.asa_seattle.org","address":"520 NE Ravenna Blvd","name":"Applied Scholastics Academy of Seattle","grade":"P-6","objectid":"46","city":"Seattle","shape_needs_recoding":null,"shape_longitude":"-122.32231534799996","shape_latitude":"47.677248150000025"}},{"type":"Feature","id":47,"geometry":{"coordinates":[-122.36049003,47.638569070000074],"type":"Point"},"properties":{"zip":"98119_2641","phone":"206.286.0771","website":"www.alcuinschool.com","address":"216 W Boston","name":"Alcuin School","grade":"P-1","objectid":"47","city":"Seattle","shape_needs_recoding":null,"shape_longitude":"-122.36049003","shape_latitude":"47.638569070000074"}},{"type":"Feature","id":48,"geometry":{"coordinates":[-122.32784327799999,47.731430630000034],"type":"Point"},"properties":{"zip":"98125_3099","phone":"206.368.3600","website":"www.lakesideschool.org","address":"14050 1st Ave NE","name":"Lakeside School","grade":"5-12","objectid":"48","city":"Seattle","shape_needs_recoding":null,"shape_longitude":"-122.32784327799999","shape_latitude":"47.731430630000034"}},{"type":"Feature","id":49,"geometry":{"coordinates":[-122.30928640299999,47.61337341500007],"type":"Point"},"properties":{"zip":"98122_4140","phone":"206.763.1167","website":"www.hamlinrobinson.org","address":"1700 E Union St.","name":"Hamlin Robinson School","grade":"1-8","objectid":"49","city":"Seattle","shape_needs_recoding":null,"shape_longitude":"-122.30928640299999","shape_latitude":"47.61337341500007"}},{"type":"Feature","id":50,"geometry":{"coordinates":[-122.33533240599996,47.616873190000035],"type":"Point"},"properties":{"zip":"98101_1426","phone":"206.621.9211","website":"www.sprucestreetschool.org","address":"914 Virginia St","name":"Spruce Street School","grade":"K-5","objectid":"50","city":"Seattle","shape_needs_recoding":null,"shape_longitude":"-122.33533240599996","shape_latitude":"47.616873190000035"}},{"type":"Feature","id":51,"geometry":{"coordinates":[-122.30595623399995,47.60320134800003],"type":"Point"},"properties":{"zip":"98122_5862","phone":"206.323.6715","website":"www.firstplaceschool.org","address":"172 20th Avenue                                   ","name":"First Place","grade":"K-6","objectid":"51","city":"Seattle","shape_needs_recoding":null,"shape_longitude":"-122.30595623399995","shape_latitude":"47.60320134800003"}},{"type":"Feature","id":52,"geometry":{"coordinates":[-122.27324033099995,47.66368030600006],"type":"Point"},"properties":{"zip":"98105_2899","phone":"206.524.8885","website":"www.thevilla.org","address":"5001 NE 50th St","name":"Villa Academy","grade":"P-8","objectid":"52","city":"Seattle","shape_needs_recoding":null,"shape_longitude":"-122.27324033099995","shape_latitude":"47.66368030600006"}},{"type":"Feature","id":53,"geometry":{"coordinates":[-122.38454732599996,47.56503750600007],"type":"Point"},"properties":{"zip":"98116_4282","phone":"206.246.9751","website":"www.stchristopheracademy.com","address":"4100 SW Genesee St","name":"St. Christopher Academy","grade":"9-12","objectid":"53","city":"Seattle","shape_needs_recoding":null,"shape_longitude":"-122.38454732599996","shape_latitude":"47.56503750600007"}},{"type":"Feature","id":54,"geometry":{"coordinates":[-122.28904754099995,47.68072946700005],"type":"Point"},"properties":{"zip":"98115_5966","phone":"206.525.7407","website":"www.concordiaseattle.com","address":"7040 36th Ave NE","name":"Concordia Lutheran School","grade":"P-8","objectid":"54","city":"Seattle","shape_needs_recoding":null,"shape_longitude":"-122.28904754099995","shape_latitude":"47.68072946700005"}},{"type":"Feature","id":55,"geometry":{"coordinates":[-122.32034868699998,47.63931582500004],"type":"Point"},"properties":{"zip":"98102_4177","phone":"206.324.5476","website":"www.bertschi.org","address":"2227 10th Ave E","name":"Bertschi School","grade":"P-5","objectid":"55","city":"Seattle","shape_needs_recoding":null,"shape_longitude":"-122.32034868699998","shape_latitude":"47.63931582500004"}},{"type":"Feature","id":56,"geometry":{"coordinates":[-122.38501808299998,47.56542100400003],"type":"Point"},"properties":{"zip":"98116_4202","phone":"206.937.7255","website":"www.holyrosaryws.org","address":"4142 42nd Ave SW","name":"Holy Rosary Elementary","grade":"K-8","objectid":"56","city":"Seattle","shape_needs_recoding":null,"shape_longitude":"-122.38501808299998","shape_latitude":"47.56542100400003"}},{"type":"Feature","id":57,"geometry":{"coordinates":[-122.35284455799996,47.677368175000026],"type":"Point"},"properties":{"zip":"98103_5215","phone":"206.218.2175","website":"www.northseattlefrenchschool.com","address":"6615 Dayton Ave N","name":"North Seattle French School","grade":"K-1","objectid":"57","city":"Seattle","shape_needs_recoding":null,"shape_longitude":"-122.35284455799996","shape_latitude":"47.677368175000026"}},{"type":"Feature","id":58,"geometry":{"coordinates":[-122.32426859099996,47.59628876700003],"type":"Point"},"properties":{"zip":"98134_1328","phone":"206.324.4350","website":"www.pscs.org","address":"660 S Dearborn St","name":"Puget Sound Community School","grade":"6-12","objectid":"58","city":"Seattle","shape_needs_recoding":null,"shape_longitude":"-122.32426859099996","shape_latitude":"47.59628876700003"}},{"type":"Feature","id":59,"geometry":{"coordinates":[-122.32481339899999,47.607756351000035],"type":"Point"},"properties":{"zip":"98104_1294","phone":"206.622.6596","website":"www.odea.org","address":"802 Terry Ave","name":"ODea High School","grade":"9-12","objectid":"59","city":"Seattle","shape_needs_recoding":null,"shape_longitude":"-122.32481339899999","shape_latitude":"47.607756351000035"}},{"type":"Feature","id":60,"geometry":{"coordinates":[-122.32011434399999,47.69112059200006],"type":"Point"},"properties":{"zip":"98115_3099","phone":"206.525.0582","website":"www.stcatherineschool.net","address":"8524 8th Ave NE","name":"St. Catherine School","grade":"P-8","objectid":"60","city":"Seattle","shape_needs_recoding":null,"shape_longitude":"-122.32011434399999","shape_latitude":"47.69112059200006"}},{"type":"Feature","id":61,"geometry":{"coordinates":[-122.33552591299997,47.68891058400004],"type":"Point"},"properties":{"zip":"98103_4599","phone":"206.527.7711","website":"www.bishopblanchet.org","address":"8200 Wallingford Ave N","name":"Bishop Blanchet High School","grade":"9-12","objectid":"61","city":"Seattle","shape_needs_recoding":null,"shape_longitude":"-122.33552591299997","shape_latitude":"47.68891058400004"}},{"type":"Feature","id":62,"geometry":{"coordinates":[-122.32594232899999,47.61339106600008],"type":"Point"},"properties":{"zip":"98122_3619","phone":"206.682.7309","website":"www.northwestschool.org","address":"1415 Summit Ave","name":"Northwest School","grade":"6-12","objectid":"62","city":"Seattle","shape_needs_recoding":null,"shape_longitude":"-122.32594232899999","shape_latitude":"47.61339106600008"}},{"type":"Feature","id":63,"geometry":{"coordinates":[-122.35349994099994,47.71387447800004],"type":"Point"},"properties":{"zip":"98133_8309","phone":"206.364.6890","website":"www.ckseattle.org","address":"415 N 117th St","name":"Christ the King School","grade":"P-8","objectid":"63","city":"Seattle","shape_needs_recoding":null,"shape_longitude":"-122.35349994099994","shape_latitude":"47.71387447800004"}},{"type":"Feature","id":64,"geometry":{"coordinates":[-122.29231491799999,47.62169507800007],"type":"Point"},"properties":{"zip":"98112_4819","phone":"206.328.4475","website":"www.thevalleyschool.org","address":"309 31st Ave E","name":"Valley School","grade":"P-5","objectid":"64","city":"Seattle","shape_needs_recoding":null,"shape_longitude":"-122.29231491799999","shape_latitude":"47.62169507800007"}},{"type":"Feature","id":65,"geometry":{"coordinates":[-122.29691214499996,47.59949202100006],"type":"Point"},"properties":{"zip":"98144_2442","phone":"206.709.2228","website":"www.seattlegirlsschool.org","address":"2706 S Jackson St ","name":"Seattle Girls School","grade":"5-12","objectid":"65","city":"Seattle","shape_needs_recoding":null,"shape_longitude":"-122.29691214499996","shape_latitude":"47.59949202100006"}},{"type":"Feature","id":66,"geometry":{"coordinates":[-122.31722234299997,47.699165582000035],"type":"Point"},"properties":{"zip":"98115_2236","phone":"425.885.1123","website":"www.dartmoor.org","address":"9618 Roosevelt Way NE          ","name":"Dartmoor School__Seattle","grade":"1-12","objectid":"66","city":"Seattle","shape_needs_recoding":null,"shape_longitude":"-122.31722234299997","shape_latitude":"47.699165582000035"}},{"type":"Feature","id":67,"geometry":{"coordinates":[-122.38508785899995,47.56341896500004],"type":"Point"},"properties":{"zip":"98116_4223","phone":"206.935.8500","website":"www.hopeseattle.org","address":"4456 42nd Ave SW","name":"Hope Lutheran School","grade":"P-8","objectid":"67","city":"Seattle","shape_needs_recoding":null,"shape_longitude":"-122.38508785899995","shape_latitude":"47.56341896500004"}},{"type":"Feature","id":68,"geometry":{"coordinates":[-122.32518291899999,47.551960371000064],"type":"Point"},"properties":{"zip":"98108","phone":"206.790.1475","website":"www.derechemunah.com","address":"650 S Orcas   Suite 200","name":"Derech Emunah dba Seattle Jewish Girls High School","grade":"9-10","objectid":"68","city":"Seattle","shape_needs_recoding":null,"shape_longitude":"-122.32518291899999","shape_latitude":"47.551960371000064"}},{"type":"Feature","id":69,"geometry":{"coordinates":[-122.35089961399996,47.643440690000034],"type":"Point"},"properties":{"zip":"98109_1903","phone":"206.284.6220","website":"www.seattlecountryday.org","address":"2619 4th Ave N","name":"Seattle Country Day School","grade":"K-8","objectid":"69","city":"Seattle","shape_needs_recoding":null,"shape_longitude":"-122.35089961399996","shape_latitude":"47.643440690000034"}},{"type":"Feature","id":70,"geometry":{"coordinates":[-122.31641140799996,47.55586612600007],"type":"Point"},"properties":{"zip":"98108_2309","phone":"206.762.0656","website":"www.saintgeorgeseattle.org","address":"5117 13th Ave S","name":"St. George School","grade":"P-8","objectid":"70","city":"Seattle","shape_needs_recoding":null,"shape_longitude":"-122.31641140799996","shape_latitude":"47.55586612600007"}},{"type":"Feature","id":71,"geometry":{"coordinates":[-122.32486573799997,47.700629744000025],"type":"Point"},"properties":{"zip":"98115_2022","phone":"206.284.2300","website":"www.brightmontacademy.com ","address":"9750 Third Ave NE  Ste 102   ","name":"Brightmont Academy_Seattle Campus","grade":"6-12","objectid":"71","city":"Seattle","shape_needs_recoding":null,"shape_longitude":"-122.32486573799997","shape_latitude":"47.700629744000025"}},{"type":"Feature","id":72,"geometry":{"coordinates":[-122.31217720599994,47.56224453500005],"type":"Point"},"properties":{"zip":"98108","phone":"206.722.1200","website":"www.tdsseattle.org","address":"1625 S Columbia Way","name":"Torah Day School of Seattle","grade":"P-8","objectid":"72","city":"Seattle","shape_needs_recoding":null,"shape_longitude":"-122.31217720599994","shape_latitude":"47.56224453500005"}},{"type":"Feature","id":73,"geometry":{"coordinates":[-122.31817801899996,47.66664859500003],"type":"Point"},"properties":{"zip":"98105_3605","phone":"206.547.8237","website":"www.ucds.org","address":"5062 9th Ave NE","name":"University Child Development School","grade":"P-5","objectid":"73","city":"Seattle","shape_needs_recoding":null,"shape_longitude":"-122.31817801899996","shape_latitude":"47.66664859500003"}},{"type":"Feature","id":74,"geometry":{"coordinates":[-122.30792638599996,47.63442242900004],"type":"Point"},"properties":{"zip":"98112_3499","phone":"206.323.5750","website":"www.seattlehebrewacademy.org","address":"1617 Interlaken Dr E","name":"Seattle Hebrew Academy","grade":"P-8","objectid":"74","city":"Seattle","shape_needs_recoding":null,"shape_longitude":"-122.30792638599996","shape_latitude":"47.63442242900004"}},{"type":"Feature","id":75,"geometry":{"coordinates":[-122.30092573399997,47.60842417100008],"type":"Point"},"properties":{"zip":"98122","phone":"206.330.6373","website":"seattleamistadschool.org","address":"2410 E Cherry","name":"Seattle Amistad School","grade":"P-1","objectid":"75","city":"Seattle","shape_needs_recoding":null,"shape_longitude":"-122.30092573399997","shape_latitude":"47.60842417100008"}},{"type":"Feature","id":76,"geometry":{"coordinates":[-122.31849399699996,47.68566025400003],"type":"Point"},"properties":{"zip":"98115_4202","phone":"206.526.0762","website":"www.fcsseattle.org","address":"844 NE 78th St","name":"Fairview Christian School                                              ","grade":"P-8","objectid":"76","city":"Seattle","shape_needs_recoding":null,"shape_longitude":"-122.31849399699996","shape_latitude":"47.68566025400003"}},{"type":"Feature","id":77,"geometry":{"coordinates":[-122.30429422899999,47.626443907000066],"type":"Point"},"properties":{"zip":"98112_4058","phone":"206.323.4272","website":"www.holynames_sea.org","address":"728 21st Ave E","name":"Holy Names Academy","grade":"9-12","objectid":"77","city":"Seattle","shape_needs_recoding":null,"shape_longitude":"-122.30429422899999","shape_latitude":"47.626443907000066"}},{"type":"Feature","id":78,"geometry":{"coordinates":[-122.31336034299994,47.66965404300004],"type":"Point"},"properties":{"zip":"98105_2619","phone":"206.524.0653","website":"www.ucoopschool.org","address":"5601 University Ave NE","name":"University Cooperative School","grade":"K-5","objectid":"78","city":"Seattle","shape_needs_recoding":null,"shape_longitude":"-122.31336034299994","shape_latitude":"47.66965404300004"}},{"type":"Feature","id":79,"geometry":{"coordinates":[-122.357634556,47.68639414100005],"type":"Point"},"properties":{"zip":"98103_4688","phone":"206.783.0337","website":"www.stjohnsea.org","address":"120 N 79th St","name":"St. John School","grade":"P-8","objectid":"79","city":"Seattle","shape_needs_recoding":null,"shape_longitude":"-122.357634556","shape_latitude":"47.68639414100005"}},{"type":"Feature","id":80,"geometry":{"coordinates":[-122.39976574299999,47.64724668500003],"type":"Point"},"properties":{"zip":"98199_2624","phone":"206.283.7031","website":"www.olfatima.org","address":"3301 W Dravus St","name":"Our Lady of Fatima School","grade":"P-8","objectid":"80","city":"Seattle","shape_needs_recoding":null,"shape_longitude":"-122.39976574299999","shape_latitude":"47.64724668500003"}}],"name":"Private Schools","updated_at":1414470655000,"count":80}